[
    {
      "type": "Feature",
      "id": "node/21302157",
      "properties": {
        "@id": "node/21302157",
        "addr:city": "Berlin",
        "addr:country": "DE",
        "addr:postcode": "10555",
        "addr:street": "Bachstraße",
        "addr:suburb": "Tiergarten",
        "light_rail": "yes",
        "name": "S Tiergarten",
        "note": "Austausch des Aufzugs bis voraussichtlich 03.02.2012",
        "phone": "030 29743333",
        "public_transport": "stop_position",
        "railway": "station",
        "station": "light_rail",
        "website": "http://www.s-bahn-berlin.de/fahrplanundnetz/bahnhof/uebersicht/151",
        "wheelchair": "no"
      },
      "geometry": {
        "type": "Point",
        "coordinates": [
          13.3364503,
          52.5142091
        ]
      }
    },
    {
      "type": "Feature",
      "id": "node/21385742",
      "properties": {
        "@id": "node/21385742",
        "light_rail": "yes",
        "name": "S Frankfurter Allee",
        "public_transport": "stop_position",
        "railway": "stop"
      },
      "geometry": {
        "type": "Point",
        "coordinates": [
          13.474265,
          52.5156597
        ]
      }
    },
    {
      "type": "Feature",
      "id": "node/21385751",
      "properties": {
        "@id": "node/21385751",
        "addr:city": "Berlin",
        "addr:country": "DE",
        "addr:housenumber": "207",
        "addr:postcode": "10369",
        "addr:street": "Storkower Straße",
        "addr:suburb": "Friedrichshain",
        "light_rail": "yes",
        "name": "S Storkower Straße",
        "old_name": "Zentralviehhof",
        "phone": "030 29743333",
        "public_transport": "stop_position",
        "railway": "station",
        "railway:station_category": "4",
        "station": "light_rail",
        "website": "http://www.s-bahn-berlin.de/fahrplanundnetz/bahnhof/uebersicht/142",
        "wheelchair": "yes"
      },
      "geometry": {
        "type": "Point",
        "coordinates": [
          13.4648786,
          52.5238158
        ]
      }
    },
    {
      "type": "Feature",
      "id": "node/26124364",
      "properties": {
        "@id": "node/26124364",
        "light_rail": "yes",
        "name": "S Jungfernheide",
        "public_transport": "stop_position",
        "railway": "station",
        "railway:station_category": "4",
        "station": "light_rail",
        "wheelchair": "yes"
      },
      "geometry": {
        "type": "Point",
        "coordinates": [
          13.299264,
          52.5304677
        ]
      }
    },
    {
      "type": "Feature",
      "id": "node/26124376",
      "properties": {
        "@id": "node/26124376",
        "light_rail": "yes",
        "name": "S Westend",
        "public_transport": "stop_position",
        "railway": "station",
        "railway:station_category": "4",
        "station": "light_rail",
        "wheelchair": "yes"
      },
      "geometry": {
        "type": "Point",
        "coordinates": [
          13.2842311,
          52.5182314
        ]
      }
    },
    {
      "type": "Feature",
      "id": "node/26124386",
      "properties": {
        "@id": "node/26124386",
        "name": "S Messe Nord/ICC",
        "public_transport": "stop_position"
      },
      "geometry": {
        "type": "Point",
        "coordinates": [
          13.2833683,
          52.5077292
        ]
      }
    },
    {
      "type": "Feature",
      "id": "node/26124401",
      "properties": {
        "@id": "node/26124401",
        "layer": "-1",
        "level": "-1",
        "name": "S Gesundbrunnen",
        "operator": "DB",
        "public_transport": "stop_position",
        "railway": "stop",
        "ref": "7",
        "train": "yes"
      },
      "geometry": {
        "type": "Point",
        "coordinates": [
          13.3894417,
          52.5486664
        ]
      }
    },
    {
      "type": "Feature",
      "id": "node/26124424",
      "properties": {
        "@id": "node/26124424",
        "addr:city": "Berlin",
        "addr:country": "DE",
        "addr:housenumber": "117",
        "addr:postcode": "10407",
        "addr:street": "Landsberger Allee",
        "addr:suburb": "Prenzlauer Berg",
        "light_rail": "yes",
        "name": "S Landsberger Allee",
        "phone": "030 29743333",
        "public_transport": "stop_position",
        "railway": "station",
        "railway:station_category": "4",
        "station": "light_rail",
        "website": "http://www.s-bahn-berlin.de/fahrplanundnetz/bahnhof/uebersicht/93",
        "wheelchair": "yes"
      },
      "geometry": {
        "type": "Point",
        "coordinates": [
          13.4548197,
          52.5295748
        ]
      }
    },
    {
      "type": "Feature",
      "id": "node/26130448",
      "properties": {
        "@id": "node/26130448",
        "level": "2",
        "name": "S Nikolassee",
        "public_transport": "stop_position",
        "railway": "stop",
        "station": "light_rail",
        "train": "yes",
        "wheelchair": "yes"
      },
      "geometry": {
        "type": "Point",
        "coordinates": [
          13.1930568,
          52.4320552
        ]
      }
    },
    {
      "type": "Feature",
      "id": "node/26603219",
      "properties": {
        "@id": "node/26603219",
        "addr:city": "Berlin",
        "addr:country": "DE",
        "addr:housenumber": "250",
        "addr:postcode": "14109",
        "addr:street": "Kronprinzessinnenweg",
        "name": "S Berlin-Wannsee",
        "network": "VBB",
        "operator": "Deutsche Bahn",
        "phone": "030 29743333",
        "public_transport": "stop_position",
        "railway": "station",
        "station": "light_rail",
        "website": "http://www.s-bahn-berlin.de/fahrplanundnetz/bahnhof/wannsee/1",
        "wheelchair": "yes"
      },
      "geometry": {
        "type": "Point",
        "coordinates": [
          13.1795662,
          52.4213179
        ]
      }
    },
    {
      "type": "Feature",
      "id": "node/26763074",
      "properties": {
        "@id": "node/26763074",
        "bus": "yes",
        "name": "Breitscheidplatz",
        "operator": "BVG",
        "public_transport": "stop_position"
      },
      "geometry": {
        "type": "Point",
        "coordinates": [
          13.3368535,
          52.5051981
        ]
      }
    },
    {
      "type": "Feature",
      "id": "node/26906145",
      "properties": {
        "@id": "node/26906145",
        "name": "S Sundgauer Straße",
        "operator": "S-Bahn Berlin",
        "public_transport": "stop_position",
        "railway": "stop",
        "station": "light_rail",
        "subway": "no",
        "train": "yes",
        "wheelchair": "yes"
      },
      "geometry": {
        "type": "Point",
        "coordinates": [
          13.2739888,
          52.436462
        ]
      }
    },
    {
      "type": "Feature",
      "id": "node/26906574",
      "properties": {
        "@id": "node/26906574",
        "name": "S Rathaus Steglitz",
        "public_transport": "stop_position"
      },
      "geometry": {
        "type": "Point",
        "coordinates": [
          13.3217646,
          52.455041
        ]
      }
    },
    {
      "type": "Feature",
      "id": "node/26908540",
      "properties": {
        "@id": "node/26908540",
        "name": "S Friedenau",
        "public_transport": "stop_position",
        "railway": "stop",
        "station": "light_rail",
        "train": "yes",
        "wheelchair": "limited"
      },
      "geometry": {
        "type": "Point",
        "coordinates": [
          13.3409928,
          52.4703901
        ]
      }
    },
    {
      "type": "Feature",
      "id": "node/26965927",
      "properties": {
        "@id": "node/26965927",
        "bus": "yes",
        "name": "Siriusstraße",
        "public_transport": "stop_position"
      },
      "geometry": {
        "type": "Point",
        "coordinates": [
          13.52189,
          52.402131
        ]
      }
    },
    {
      "type": "Feature",
      "id": "node/26969275",
      "properties": {
        "@id": "node/26969275",
        "light_rail": "yes",
        "name": "S Hohenzollerndamm",
        "public_transport": "stop_position",
        "railway": "station",
        "railway:station_category": "4",
        "station": "light_rail",
        "wheelchair": "yes"
      },
      "geometry": {
        "type": "Point",
        "coordinates": [
          13.3004122,
          52.4884088
        ]
      }
    },
    {
      "type": "Feature",
      "id": "node/27126903",
      "properties": {
        "@id": "node/27126903",
        "bus": "yes",
        "name": "Friedenstraße",
        "public_transport": "stop_position"
      },
      "geometry": {
        "type": "Point",
        "coordinates": [
          13.1389575,
          52.4172208
        ]
      }
    },
    {
      "type": "Feature",
      "id": "node/27176639",
      "properties": {
        "@id": "node/27176639",
        "highway": "bus_stop",
        "name": "Otisstraße",
        "note": "exact position unknown",
        "public_transport": "stop_position"
      },
      "geometry": {
        "type": "Point",
        "coordinates": [
          13.3005224,
          52.5697129
        ]
      }
    },
    {
      "type": "Feature",
      "id": "node/27176711",
      "properties": {
        "@id": "node/27176711",
        "name": "S Tegel",
        "public_transport": "stop_position",
        "railway": "stop",
        "ref": "BTG",
        "station": "light_rail",
        "train": "yes",
        "wheelchair": "yes"
      },
      "geometry": {
        "type": "Point",
        "coordinates": [
          13.2899791,
          52.5879747
        ]
      }
    },
    {
      "type": "Feature",
      "id": "node/27186919",
      "properties": {
        "@id": "node/27186919",
        "level": "1",
        "name": "S Schöneberg",
        "public_transport": "stop_position",
        "railway": "stop",
        "station": "light_rail",
        "train": "yes",
        "wheelchair": "yes",
        "wikipedia:de": "Bahnhof_Berlin-Schöneberg"
      },
      "geometry": {
        "type": "Point",
        "coordinates": [
          13.3516601,
          52.4793193
        ]
      }
    },
    {
      "type": "Feature",
      "id": "node/27199766",
      "properties": {
        "@id": "node/27199766",
        "name": "S Karl-Bonhoeffer-Nervenklinik",
        "public_transport": "stop_position",
        "railway": "stop",
        "station": "light_rail",
        "train": "yes",
        "wheelchair": "no"
      },
      "geometry": {
        "type": "Point",
        "coordinates": [
          13.3291581,
          52.5780409
        ]
      }
    },
    {
      "type": "Feature",
      "id": "node/27199769",
      "properties": {
        "@id": "node/27199769",
        "highway": "no",
        "layer": "1",
        "level": "1",
        "name": "S Alt-Reinickendorf",
        "public_transport": "stop_position",
        "rail": "yes",
        "railway": "stop",
        "station": "light_rail",
        "train": "yes",
        "wheelchair": "no"
      },
      "geometry": {
        "type": "Point",
        "coordinates": [
          13.3507603,
          52.5778179
        ]
      }
    },
    {
      "type": "Feature",
      "id": "node/27252307",
      "properties": {
        "@id": "node/27252307",
        "level": "1",
        "name": "S Mexikoplatz",
        "public_transport": "stop_position",
        "railway": "stop",
        "station": "light_rail",
        "train": "yes",
        "website": "http://www.s-bahn-berlin.de/fahrplanundnetz/bahnhof/uebersicht/5",
        "wheelchair": "yes",
        "wikipedia:de": "Bahnhof_Berlin_Mexikoplatz"
      },
      "geometry": {
        "type": "Point",
        "coordinates": [
          13.2332649,
          52.4368003
        ]
      }
    },
    {
      "type": "Feature",
      "id": "node/27252562",
      "properties": {
        "@id": "node/27252562",
        "level": "1",
        "name": "S Zehlendorf",
        "public_transport": "stop_position",
        "railway": "stop",
        "train": "yes"
      },
      "geometry": {
        "type": "Point",
        "coordinates": [
          13.2577513,
          52.4309248
        ]
      }
    },
    {
      "type": "Feature",
      "id": "node/27325589",
      "properties": {
        "@id": "node/27325589",
        "addr:city": "Berlin",
        "addr:country": "DE",
        "addr:postcode": "10715",
        "addr:street": "Bundesallee/ Wexstraße",
        "light_rail": "yes",
        "name": "S Bundesplatz",
        "phone": "030 29743333",
        "public_transport": "stop_position",
        "railway": "station",
        "railway:station_category": "4",
        "station": "light_rail",
        "website": "http://www.s-bahn-berlin.de/fahrplanundnetz/bahnhof/uebersicht/48",
        "wheelchair": "yes"
      },
      "geometry": {
        "type": "Point",
        "coordinates": [
          13.3294584,
          52.4776008
        ]
      }
    },
    {
      "type": "Feature",
      "id": "node/27325925",
      "properties": {
        "@id": "node/27325925",
        "name": "S Innsbrucker Platz",
        "public_transport": "stop_position"
      },
      "geometry": {
        "type": "Point",
        "coordinates": [
          13.3425235,
          52.4780458
        ]
      }
    },
    {
      "type": "Feature",
      "id": "node/27374983",
      "properties": {
        "@id": "node/27374983",
        "addr:city": "Berlin",
        "addr:country": "DE",
        "addr:postcode": "14129",
        "addr:street": "Am Schlachtensee",
        "name": "S Schlachtensee",
        "phone": "+49 30 29743333",
        "public_transport": "stop_position",
        "railway": "stop",
        "station": "light_rail",
        "train": "yes",
        "website": "http://www.s-bahn-berlin.de/fahrplanundnetz/sbahnhof_anzeige.php?ID=4",
        "wheelchair": "yes",
        "wikipedia:de": "Bahnhof Berlin Schlachtensee"
      },
      "geometry": {
        "type": "Point",
        "coordinates": [
          13.215053,
          52.4400913
        ]
      }
    },
    {
      "type": "Feature",
      "id": "node/27378816",
      "properties": {
        "@id": "node/27378816",
        "bus": "yes",
        "name": "Lindenstraße/Waltersdorfer Straße",
        "public_transport": "stop_position",
        "wheelchair": "yes"
      },
      "geometry": {
        "type": "Point",
        "coordinates": [
          13.5724034,
          52.3925545
        ]
      }
    },
    {
      "type": "Feature",
      "id": "node/27411231",
      "properties": {
        "@id": "node/27411231",
        "light_rail": "yes",
        "name": "S Alexanderplatz",
        "operator": "DB",
        "public_transport": "stop_position",
        "railway": "stop",
        "ref": "3",
        "train": "yes"
      },
      "geometry": {
        "type": "Point",
        "coordinates": [
          13.4113916,
          52.5214203
        ]
      }
    },
    {
      "type": "Feature",
      "id": "node/27411240",
      "properties": {
        "@id": "node/27411240",
        "addr:city": "Berlin",
        "addr:country": "DE",
        "addr:postcode": "10178",
        "addr:street": "Am Zwirngraben",
        "atm": "yes",
        "atm:operator": "VÖB ZVD",
        "level": "1",
        "name": "S Hackescher Markt",
        "phone": "030 29743333",
        "public_transport": "stop_position",
        "railway": "stop",
        "station": "light_rail",
        "train": "yes",
        "website": "http://www.s-bahn-berlin.de/fahrplanundnetz/bahnhof/hackescher-markt/68",
        "wheelchair": "no"
      },
      "geometry": {
        "type": "Point",
        "coordinates": [
          13.4023518,
          52.5226097
        ]
      }
    },
    {
      "type": "Feature",
      "id": "node/27412232",
      "properties": {
        "@id": "node/27412232",
        "bus": "no",
        "level": "3",
        "light_rail": "yes",
        "name": "S Friedrichstraße",
        "public_transport": "stop_position",
        "railway": "stop",
        "ref": "5",
        "train": "yes"
      },
      "geometry": {
        "type": "Point",
        "coordinates": [
          13.3871988,
          52.5203431
        ]
      }
    },
    {
      "type": "Feature",
      "id": "node/27412648",
      "properties": {
        "@id": "node/27412648",
        "light_rail": "yes",
        "name": "S Hauptbahnhof",
        "public_transport": "stop_position"
      },
      "geometry": {
        "type": "Point",
        "coordinates": [
          13.3700598,
          52.5251806
        ]
      }
    },
    {
      "type": "Feature",
      "id": "node/27429866",
      "properties": {
        "@id": "node/27429866",
        "addr:city": "Berlin",
        "addr:country": "DE",
        "addr:postcode": "12157",
        "addr:street": "Priesterweg",
        "name": "S Priesterweg",
        "phone": "+49 30 29743333",
        "public_transport": "stop_position",
        "railway": "station",
        "station": "light_rail",
        "website": "http://www.s-bahn-berlin.de/fahrplanundnetz/bahnhof/priesterweg/126",
        "wheelchair": "yes"
      },
      "geometry": {
        "type": "Point",
        "coordinates": [
          13.3560426,
          52.4599394
        ]
      }
    },
    {
      "type": "Feature",
      "id": "node/27432374",
      "properties": {
        "@id": "node/27432374",
        "level": "-1",
        "name": "S Botanischer Garten",
        "operator": "S-Bahn Berlin GmbH",
        "public_transport": "stop_position",
        "railway": "stop",
        "station": "light_rail",
        "train": "yes",
        "wheelchair": "yes"
      },
      "geometry": {
        "type": "Point",
        "coordinates": [
          13.3071361,
          52.4480305
        ]
      }
    },
    {
      "type": "Feature",
      "id": "node/27446265",
      "properties": {
        "@id": "node/27446265",
        "name": "Regattastraße/Sportpromenade",
        "public_transport": "stop_position",
        "railway": "tram_stop",
        "tram": "yes"
      },
      "geometry": {
        "type": "Point",
        "coordinates": [
          13.5982825,
          52.4104207
        ]
      }
    },
    {
      "type": "Feature",
      "id": "node/27466530",
      "properties": {
        "@id": "node/27466530",
        "light_rail": "yes",
        "name": "S Heiligensee",
        "operator": "S-Bahn Berlin GmbH",
        "public_transport": "stop_position",
        "rail": "yes",
        "railway": "stop",
        "train": "yes"
      },
      "geometry": {
        "type": "Point",
        "coordinates": [
          13.229258,
          52.6247173
        ]
      }
    },
    {
      "type": "Feature",
      "id": "node/27491810",
      "properties": {
        "@id": "node/27491810",
        "name": "S Lichterfelde Süd",
        "public_transport": "stop_position",
        "railway": "stop",
        "station": "light_rail",
        "train": "yes",
        "wheelchair": "yes"
      },
      "geometry": {
        "type": "Point",
        "coordinates": [
          13.3084454,
          52.4099659
        ]
      }
    },
    {
      "type": "Feature",
      "id": "node/27527830",
      "properties": {
        "@id": "node/27527830",
        "light_rail": "yes",
        "name": "S Westkreuz",
        "operator": "S-Bahn Berlin GmbH",
        "public_transport": "stop_position"
      },
      "geometry": {
        "type": "Point",
        "coordinates": [
          13.2841272,
          52.5003902
        ]
      }
    },
    {
      "type": "Feature",
      "id": "node/27540514",
      "properties": {
        "@id": "node/27540514",
        "light_rail": "yes",
        "name": "S Tempelhof",
        "public_transport": "stop_position"
      },
      "geometry": {
        "type": "Point",
        "coordinates": [
          13.3835219,
          52.4712344
        ]
      }
    },
    {
      "type": "Feature",
      "id": "node/27542070",
      "properties": {
        "@id": "node/27542070",
        "bus": "yes",
        "highway": "bus_stop",
        "name": "Späthstraße/Ligusterweg",
        "public_transport": "stop_position"
      },
      "geometry": {
        "type": "Point",
        "coordinates": [
          13.4690691,
          52.451962
        ]
      }
    },
    {
      "type": "Feature",
      "id": "node/27554979",
      "properties": {
        "@id": "node/27554979",
        "light_rail": "yes",
        "name": "S Hermannstraße",
        "public_transport": "stop_position",
        "railway": "station",
        "railway:station_category": "4",
        "station": "light_rail",
        "wheelchair": "no"
      },
      "geometry": {
        "type": "Point",
        "coordinates": [
          13.431449,
          52.46763
        ]
      }
    },
    {
      "type": "Feature",
      "id": "node/27586338",
      "properties": {
        "@id": "node/27586338",
        "highway": "bus_stop",
        "name": "Krematorium Ruhleben",
        "public_transport": "stop_position",
        "wheelchair": "limited"
      },
      "geometry": {
        "type": "Point",
        "coordinates": [
          13.2318004,
          52.527809
        ]
      }
    },
    {
      "type": "Feature",
      "id": "node/27785719",
      "properties": {
        "@id": "node/27785719",
        "name": "U Nollendorfplatz",
        "public_transport": "stop_position",
        "surveillance": "outdoor",
        "wheelchair": "yes"
      },
      "geometry": {
        "type": "Point",
        "coordinates": [
          13.3540769,
          52.4997137
        ]
      }
    },
    {
      "type": "Feature",
      "id": "node/28092581",
      "properties": {
        "@id": "node/28092581",
        "alt_name": "Großgörschenstraße",
        "light_rail": "yes",
        "name": "S Yorckstraße (Großgörschenstraße)",
        "public_transport": "stop_position",
        "railway": "stop",
        "station": "light_rail",
        "train": "yes",
        "website": "http://www.s-bahn-berlin.de/fahrplanundnetz/sbahnhof_anzeige.php?ID=182",
        "wheelchair": "yes"
      },
      "geometry": {
        "type": "Point",
        "coordinates": [
          13.3680492,
          52.4922763
        ]
      }
    },
    {
      "type": "Feature",
      "id": "node/28300448",
      "properties": {
        "@id": "node/28300448",
        "bus": "yes",
        "name": "U Osloer Straße",
        "public_transport": "stop_position",
        "subway": "no",
        "tram": "no"
      },
      "geometry": {
        "type": "Point",
        "coordinates": [
          13.3729953,
          52.5572495
        ]
      }
    },
    {
      "type": "Feature",
      "id": "node/28469425",
      "properties": {
        "@id": "node/28469425",
        "name": "Berlin-Spandau",
        "public_transport": "stop_position",
        "ref": "4"
      },
      "geometry": {
        "type": "Point",
        "coordinates": [
          13.1956022,
          52.5348439
        ]
      }
    },
    {
      "type": "Feature",
      "id": "node/29046167",
      "properties": {
        "@id": "node/29046167",
        "line": "U9",
        "name": "U Osloer Straße",
        "public_transport": "stop_position",
        "railway": "station",
        "station": "subway",
        "subway": "yes",
        "wheelchair": "yes"
      },
      "geometry": {
        "type": "Point",
        "coordinates": [
          13.3732833,
          52.5571735
        ]
      }
    },
    {
      "type": "Feature",
      "id": "node/29058100",
      "properties": {
        "@id": "node/29058100",
        "name": "U Oranienburger Tor",
        "public_transport": "stop_position",
        "surveillance": "indoor",
        "wheelchair": "yes",
        "wikipedia": "de:U-Bahnhof Oranienburger Tor"
      },
      "geometry": {
        "type": "Point",
        "coordinates": [
          13.3872649,
          52.5260564
        ]
      }
    },
    {
      "type": "Feature",
      "id": "node/29070457",
      "properties": {
        "@id": "node/29070457",
        "light_rail": "yes",
        "name": "S Beusselstraße",
        "public_transport": "stop_position",
        "railway": "station",
        "railway:station_category": "4",
        "station": "light_rail",
        "wheelchair": "yes"
      },
      "geometry": {
        "type": "Point",
        "coordinates": [
          13.3292397,
          52.5344611
        ]
      }
    },
    {
      "type": "Feature",
      "id": "node/29190890",
      "properties": {
        "@id": "node/29190890",
        "name": "U Franz-Neumann-Platz",
        "public_transport": "stop_position",
        "railway": "station",
        "station": "subway",
        "subway": "yes",
        "wheelchair": "no"
      },
      "geometry": {
        "type": "Point",
        "coordinates": [
          13.3639068,
          52.5645821
        ]
      }
    },
    {
      "type": "Feature",
      "id": "node/29190907",
      "properties": {
        "@id": "node/29190907",
        "layer": "-3",
        "level": "-3",
        "name": "U Gesundbrunnen",
        "operator": "BVG",
        "public_transport": "stop_position",
        "railway": "stop",
        "ref": "208311;208312",
        "station": "subway",
        "subway": "yes",
        "wheelchair": "yes"
      },
      "geometry": {
        "type": "Point",
        "coordinates": [
          13.3883902,
          52.5488305
        ]
      }
    },
    {
      "type": "Feature",
      "id": "node/29423020",
      "properties": {
        "@id": "node/29423020",
        "addr:city": "Berlin",
        "addr:country": "DE",
        "addr:postcode": "13089",
        "addr:street": "Prenzlauer Promenade",
        "light_rail": "yes",
        "name": "S Pankow-Heinersdorf",
        "phone": "+49 30 29743333",
        "public_transport": "stop_position",
        "station": "light_rail",
        "website": "http://www.s-bahn-berlin.de/fahrplanundnetz/sbahnhof_anzeige.php?ID=118",
        "wheelchair": "yes"
      },
      "geometry": {
        "type": "Point",
        "coordinates": [
          13.4299047,
          52.5783458
        ]
      }
    },
    {
      "type": "Feature",
      "id": "node/29497638",
      "properties": {
        "@id": "node/29497638",
        "name": "U Innsbrucker Platz",
        "public_transport": "stop_position",
        "railway": "station",
        "station": "subway",
        "subway": "yes",
        "wheelchair": "limited"
      },
      "geometry": {
        "type": "Point",
        "coordinates": [
          13.3437139,
          52.4788767
        ]
      }
    },
    {
      "type": "Feature",
      "id": "node/29581227",
      "properties": {
        "@id": "node/29581227",
        "bus": "yes",
        "highway": "bus_stop",
        "name": "Lockenhuhnweg",
        "public_transport": "stop_position",
        "wheelchair": "limited"
      },
      "geometry": {
        "type": "Point",
        "coordinates": [
          13.492554,
          52.4086684
        ]
      }
    },
    {
      "type": "Feature",
      "id": "node/29805120",
      "properties": {
        "@id": "node/29805120",
        "level": "3",
        "name": "Friedrichstraße",
        "operator": "DB",
        "public_transport": "stop_position",
        "railway": "stop",
        "ref": "1",
        "train": "yes"
      },
      "geometry": {
        "type": "Point",
        "coordinates": [
          13.3870305,
          52.5200215
        ]
      }
    },
    {
      "type": "Feature",
      "id": "node/29807251",
      "properties": {
        "@id": "node/29807251",
        "name": "S Friedrichsfelde Ost",
        "public_transport": "stop_position",
        "railway": "station",
        "station": "light_rail",
        "wheelchair": "yes"
      },
      "geometry": {
        "type": "Point",
        "coordinates": [
          13.5200865,
          52.5141002
        ]
      }
    },
    {
      "type": "Feature",
      "id": "node/29809225",
      "properties": {
        "@id": "node/29809225",
        "light_rail": "yes",
        "name": "S Karlshorst",
        "public_transport": "stop_position"
      },
      "geometry": {
        "type": "Point",
        "coordinates": [
          13.5262596,
          52.4810105
        ]
      }
    },
    {
      "type": "Feature",
      "id": "node/29880185",
      "properties": {
        "@id": "node/29880185",
        "name": "U Biesdorf-Süd",
        "public_transport": "stop_position",
        "subway": "yes"
      },
      "geometry": {
        "type": "Point",
        "coordinates": [
          13.5464016,
          52.4996678
        ]
      }
    },
    {
      "type": "Feature",
      "id": "node/29881347",
      "properties": {
        "@id": "node/29881347",
        "light_rail": "yes",
        "name": "S+U Wuhletal",
        "public_transport": "stop_position"
      },
      "geometry": {
        "type": "Point",
        "coordinates": [
          13.5740673,
          52.5127876
        ]
      }
    },
    {
      "type": "Feature",
      "id": "node/29885343",
      "properties": {
        "@id": "node/29885343",
        "bus": "yes",
        "name": "Jan-Petersen-Straße",
        "public_transport": "stop_position",
        "tram": "no"
      },
      "geometry": {
        "type": "Point",
        "coordinates": [
          13.5615593,
          52.5473957
        ]
      }
    },
    {
      "type": "Feature",
      "id": "node/29885360",
      "properties": {
        "@id": "node/29885360",
        "bus": "yes",
        "name": "Jan-Petersen-Straße",
        "public_transport": "stop_position",
        "tram": "no"
      },
      "geometry": {
        "type": "Point",
        "coordinates": [
          13.5610271,
          52.5472548
        ]
      }
    },
    {
      "type": "Feature",
      "id": "node/29921519",
      "properties": {
        "@id": "node/29921519",
        "light_rail": "yes",
        "name": "S Spindlersfeld",
        "public_transport": "stop_position",
        "railway": "station",
        "station": "light_rail",
        "wheelchair": "yes"
      },
      "geometry": {
        "type": "Point",
        "coordinates": [
          13.5615055,
          52.446882
        ]
      }
    },
    {
      "type": "Feature",
      "id": "node/29921532",
      "properties": {
        "@id": "node/29921532",
        "light_rail": "yes",
        "name": "S Oberspree",
        "public_transport": "stop_position",
        "railway": "station",
        "station": "light_rail",
        "wheelchair": "yes"
      },
      "geometry": {
        "type": "Point",
        "coordinates": [
          13.538804,
          52.452614
        ]
      }
    },
    {
      "type": "Feature",
      "id": "node/29921550",
      "properties": {
        "@id": "node/29921550",
        "light_rail": "yes",
        "name": "S Schöneweide",
        "public_transport": "stop_position",
        "railway": "station",
        "station": "light_rail",
        "wheelchair": "yes"
      },
      "geometry": {
        "type": "Point",
        "coordinates": [
          13.5099764,
          52.45456
        ]
      }
    },
    {
      "type": "Feature",
      "id": "node/29925371",
      "properties": {
        "@id": "node/29925371",
        "addr:city": "Berlin",
        "addr:country": "DE",
        "addr:postcode": "12057",
        "addr:street": "Krebsgang",
        "light_rail": "yes",
        "name": "S Köllnische Heide",
        "phone": "030 29743333",
        "public_transport": "stop_position",
        "railway": "station",
        "station": "light_rail",
        "website": "http://www.s-bahn-berlin.de/fahrplanundnetz/bahnhof/uebersicht/171",
        "wheelchair": "yes"
      },
      "geometry": {
        "type": "Point",
        "coordinates": [
          13.4677242,
          52.4696575
        ]
      }
    },
    {
      "type": "Feature",
      "id": "node/29925386",
      "properties": {
        "@id": "node/29925386",
        "addr:city": "Berlin",
        "addr:country": "DE",
        "addr:housenumber": "50",
        "addr:postcode": "12055",
        "addr:street": "Saalestraße",
        "addr:suburb": "Neukölln",
        "light_rail": "yes",
        "name": "S Sonnenallee",
        "phone": "030 29743333",
        "public_transport": "stop_position",
        "railway": "station",
        "railway:station_category": "4",
        "station": "light_rail",
        "website": "http://www.s-bahn-berlin.de/fahrplanundnetz/bahnhof/uebersicht/138",
        "wheelchair": "yes"
      },
      "geometry": {
        "type": "Point",
        "coordinates": [
          13.4558373,
          52.4729363
        ]
      }
    },
    {
      "type": "Feature",
      "id": "node/30019971",
      "properties": {
        "@id": "node/30019971",
        "layer": "-1",
        "level": "-1",
        "name": "S Feuerbachstraße",
        "public_transport": "stop_position",
        "railway": "stop",
        "train": "yes"
      },
      "geometry": {
        "type": "Point",
        "coordinates": [
          13.3326723,
          52.4637499
        ]
      }
    },
    {
      "type": "Feature",
      "id": "node/30206148",
      "properties": {
        "@id": "node/30206148",
        "layer": "-1",
        "level": "-1",
        "name": "S Gesundbrunnen",
        "operator": "DB",
        "public_transport": "stop_position",
        "railway": "stop",
        "ref": "8",
        "train": "yes"
      },
      "geometry": {
        "type": "Point",
        "coordinates": [
          13.3894273,
          52.5485026
        ]
      }
    },
    {
      "type": "Feature",
      "id": "node/30206151",
      "properties": {
        "@id": "node/30206151",
        "layer": "-1",
        "level": "-1",
        "name": "S Gesundbrunnen",
        "operator": "DB",
        "public_transport": "stop_position",
        "railway": "stop",
        "ref": "10",
        "train": "yes"
      },
      "geometry": {
        "type": "Point",
        "coordinates": [
          13.3894627,
          52.5482978
        ]
      }
    },
    {
      "type": "Feature",
      "id": "node/30206819",
      "properties": {
        "@id": "node/30206819",
        "layer": "-1",
        "level": "-1",
        "name": "S Gesundbrunnen",
        "operator": "DB",
        "public_transport": "stop_position",
        "railway": "stop",
        "ref": "5",
        "train": "yes"
      },
      "geometry": {
        "type": "Point",
        "coordinates": [
          13.3894488,
          52.5488831
        ]
      }
    },
    {
      "type": "Feature",
      "id": "node/30244857",
      "properties": {
        "@id": "node/30244857",
        "description": "S Waidmannslust",
        "public_transport": "stop_position",
        "railway": "stop",
        "ref": "1"
      },
      "geometry": {
        "type": "Point",
        "coordinates": [
          13.3212809,
          52.6063123
        ]
      }
    },
    {
      "type": "Feature",
      "id": "node/30244899",
      "properties": {
        "@id": "node/30244899",
        "description": "S Hermsdorf",
        "public_transport": "stop_position",
        "railway": "stop",
        "ref": "1"
      },
      "geometry": {
        "type": "Point",
        "coordinates": [
          13.3077471,
          52.6173738
        ]
      }
    },
    {
      "type": "Feature",
      "id": "node/30245020",
      "properties": {
        "@id": "node/30245020",
        "light_rail": "yes",
        "name": "S Frohnau",
        "public_transport": "stop_position",
        "railway": "stop",
        "ref": "1",
        "wheelchair": "yes"
      },
      "geometry": {
        "type": "Point",
        "coordinates": [
          13.2904313,
          52.6323523
        ]
      }
    },
    {
      "type": "Feature",
      "id": "node/30304944",
      "properties": {
        "@id": "node/30304944",
        "name": "Prenzlauer Allee/Ostseestraße",
        "public_transport": "stop_position",
        "railway": "tram_stop",
        "ref:BVG": "309565",
        "website": "http://qr.bvg.de/h309565",
        "wheelchair": "yes"
      },
      "geometry": {
        "type": "Point",
        "coordinates": [
          13.4300239,
          52.5507797
        ]
      }
    },
    {
      "type": "Feature",
      "id": "node/30304965",
      "properties": {
        "@id": "node/30304965",
        "name": "Prenzlauer Promenade/Am Steinberg",
        "public_transport": "stop_position",
        "railway": "tram_stop",
        "wheelchair": "yes"
      },
      "geometry": {
        "type": "Point",
        "coordinates": [
          13.4299757,
          52.5566797
        ]
      }
    },
    {
      "type": "Feature",
      "id": "node/30325044",
      "properties": {
        "@id": "node/30325044",
        "name": "S Attilastraße",
        "public_transport": "stop_position",
        "railway": "stop",
        "station": "light_rail",
        "train": "yes",
        "wheelchair": "no"
      },
      "geometry": {
        "type": "Point",
        "coordinates": [
          13.3609545,
          52.4474181
        ]
      }
    },
    {
      "type": "Feature",
      "id": "node/30352438",
      "properties": {
        "@id": "node/30352438",
        "name": "S Lankwitz",
        "public_transport": "stop_position",
        "railway": "stop",
        "station": "light_rail",
        "train": "yes",
        "website": "http://www.s-bahn-berlin.de/fahrplanundnetz/bahnhof/lankwitz/94",
        "wheelchair": "yes",
        "wikipedia:de": "Bahnhof_Berlin-Lankwitz"
      },
      "geometry": {
        "type": "Point",
        "coordinates": [
          13.3421759,
          52.4388305
        ]
      }
    },
    {
      "type": "Feature",
      "id": "node/30353065",
      "properties": {
        "@id": "node/30353065",
        "level": "1",
        "public_transport": "stop_position",
        "railway": "stop",
        "station": "light_rail",
        "train": "yes",
        "wheelchair": "yes"
      },
      "geometry": {
        "type": "Point",
        "coordinates": [
          13.3720151,
          52.4914726
        ]
      }
    },
    {
      "type": "Feature",
      "id": "node/30353081",
      "properties": {
        "@id": "node/30353081",
        "layer": "-3",
        "level": "-3",
        "public_transport": "stop_position",
        "railway": "stop",
        "train": "yes"
      },
      "geometry": {
        "type": "Point",
        "coordinates": [
          13.3764561,
          52.510017
        ]
      }
    },
    {
      "type": "Feature",
      "id": "node/30353086",
      "properties": {
        "@id": "node/30353086",
        "name": "S Brandenburger Tor",
        "old_name": "S Unter den Linden",
        "public_transport": "stop_position",
        "railway": "station",
        "station": "light_rail",
        "train": "yes",
        "website": "http://www.s-bahn-berlin.de/fahrplanundnetz/sbahnhof_anzeige.php?ID=153",
        "wheelchair": "no"
      },
      "geometry": {
        "type": "Point",
        "coordinates": [
          13.3817427,
          52.5164839
        ]
      }
    },
    {
      "type": "Feature",
      "id": "node/30353449",
      "properties": {
        "@id": "node/30353449",
        "light_rail": "yes",
        "name": "S Oranienburger Straße",
        "public_transport": "stop_position",
        "railway": "stop",
        "train": "yes"
      },
      "geometry": {
        "type": "Point",
        "coordinates": [
          13.3929139,
          52.525167
        ]
      }
    },
    {
      "type": "Feature",
      "id": "node/30499115",
      "properties": {
        "@id": "node/30499115",
        "addr:city": "Berlin",
        "addr:country": "DE",
        "addr:housenumber": "254-256",
        "addr:postcode": "12489",
        "addr:street": "Adlergestell",
        "addr:suburb": "Adlershof",
        "light_rail": "yes",
        "name": "S Adlershof",
        "operator": "S-Bahn Berlin Gmbh",
        "public_transport": "stop_position",
        "railway": "station",
        "station": "light_rail",
        "wheelchair": "yes"
      },
      "geometry": {
        "type": "Point",
        "coordinates": [
          13.5418848,
          52.4344054
        ]
      }
    },
    {
      "type": "Feature",
      "id": "node/30499135",
      "properties": {
        "@id": "node/30499135",
        "light_rail": "yes",
        "name": "S Betriebsbahnhof Schöneweide",
        "public_transport": "stop_position",
        "station": "light_rail"
      },
      "geometry": {
        "type": "Point",
        "coordinates": [
          13.5244274,
          52.446382
        ]
      }
    },
    {
      "type": "Feature",
      "id": "node/30625140",
      "properties": {
        "@id": "node/30625140",
        "bus": "yes",
        "highway": "bus_stop",
        "name": "Neumagener Straße",
        "network": "VBB",
        "operator": "BVG",
        "public_transport": "stop_position",
        "ref": "9140515"
      },
      "geometry": {
        "type": "Point",
        "coordinates": [
          13.4724212,
          52.5598258
        ]
      }
    },
    {
      "type": "Feature",
      "id": "node/30625200",
      "properties": {
        "@id": "node/30625200",
        "bus": "yes",
        "name": "Neumagener Straße",
        "network": "VBB",
        "operator": "BVG",
        "public_transport": "stop_position",
        "ref": "9140515"
      },
      "geometry": {
        "type": "Point",
        "coordinates": [
          13.473398,
          52.5599225
        ]
      }
    },
    {
      "type": "Feature",
      "id": "node/30689860",
      "properties": {
        "@id": "node/30689860",
        "bus": "no",
        "name": "Prerower Platz",
        "public_transport": "stop_position",
        "railway": "tram_stop",
        "ref:BVG": "309512",
        "tactile_paving": "yes",
        "tram": "yes",
        "website": "http://qr.bvg.de/h309512",
        "wheelchair": "yes"
      },
      "geometry": {
        "type": "Point",
        "coordinates": [
          13.5063408,
          52.5636582
        ]
      }
    },
    {
      "type": "Feature",
      "id": "node/30689934",
      "properties": {
        "@id": "node/30689934",
        "bus": "no",
        "name": "Prerower Platz",
        "public_transport": "stop_position",
        "railway": "tram_stop",
        "ref:BVG": "309263",
        "tactile_paving": "yes",
        "tram": "yes",
        "website": "http://qr.bvg.de/h309263",
        "wheelchair": "yes"
      },
      "geometry": {
        "type": "Point",
        "coordinates": [
          13.5047931,
          52.5637037
        ]
      }
    },
    {
      "type": "Feature",
      "id": "node/30690013",
      "properties": {
        "@id": "node/30690013",
        "bus": "yes",
        "public_transport": "stop_position",
        "tram": "no"
      },
      "geometry": {
        "type": "Point",
        "coordinates": [
          13.5196351,
          52.5686056
        ]
      }
    },
    {
      "type": "Feature",
      "id": "node/30691227",
      "properties": {
        "@id": "node/30691227",
        "bus": "no",
        "name": "Falkenberg",
        "public_transport": "stop_position",
        "railway": "tram_stop",
        "ref:BVG": "309516",
        "tram": "yes",
        "website": "http://qr.bvg.de/h309516",
        "wheelchair": "limited"
      },
      "geometry": {
        "type": "Point",
        "coordinates": [
          13.5265973,
          52.5698521
        ]
      }
    },
    {
      "type": "Feature",
      "id": "node/30692597",
      "properties": {
        "@id": "node/30692597",
        "name": "Gehrenseestraße",
        "public_transport": "stop_position",
        "railway": "tram_stop",
        "ref:BVG": "309780",
        "tactile_paving": "no",
        "website": "http://qr.bvg.de/h309780"
      },
      "geometry": {
        "type": "Point",
        "coordinates": [
          13.5091917,
          52.5508086
        ]
      }
    },
    {
      "type": "Feature",
      "id": "node/30694352",
      "properties": {
        "@id": "node/30694352",
        "bus": "no",
        "name": "Wuhletalstraße",
        "public_transport": "stop_position",
        "railway": "tram_stop",
        "tram": "yes",
        "wheelchair": "yes"
      },
      "geometry": {
        "type": "Point",
        "coordinates": [
          13.5682721,
          52.5577942
        ]
      }
    },
    {
      "type": "Feature",
      "id": "node/30694375",
      "properties": {
        "@id": "node/30694375",
        "name": "Niemegker Straße",
        "public_transport": "stop_position",
        "railway": "tram_stop",
        "source": "survey",
        "tram": "yes",
        "wheelchair": "yes"
      },
      "geometry": {
        "type": "Point",
        "coordinates": [
          13.5718597,
          52.5650162
        ]
      }
    },
    {
      "type": "Feature",
      "id": "node/30694376",
      "properties": {
        "@id": "node/30694376",
        "name": "Barnimplatz",
        "operator": "BVG",
        "public_transport": "stop_position",
        "railway": "tram_stop",
        "tram": "yes",
        "wheelchair": "limited"
      },
      "geometry": {
        "type": "Point",
        "coordinates": [
          13.5747394,
          52.5682711
        ]
      }
    },
    {
      "type": "Feature",
      "id": "node/30694391",
      "properties": {
        "@id": "node/30694391",
        "bus": "no",
        "name": "Ahrensfelde",
        "operator": "BVG",
        "public_transport": "stop_position",
        "railway": "tram_stop",
        "tram": "yes"
      },
      "geometry": {
        "type": "Point",
        "coordinates": [
          13.5744639,
          52.5722678
        ]
      }
    },
    {
      "type": "Feature",
      "id": "node/30694394",
      "properties": {
        "@id": "node/30694394",
        "bus": "no",
        "name": "Landsberger Allee/Blumberger Damm",
        "public_transport": "stop_position",
        "railway": "tram_stop",
        "shelter": "yes",
        "tactile_paving": "yes",
        "tram": "yes",
        "wheelchair": "yes"
      },
      "geometry": {
        "type": "Point",
        "coordinates": [
          13.5727637,
          52.5464074
        ]
      }
    },
    {
      "type": "Feature",
      "id": "node/30733524",
      "properties": {
        "@id": "node/30733524",
        "name": "Am Wasserturm",
        "public_transport": "stop_position",
        "railway": "tram_stop",
        "wheelchair": "yes"
      },
      "geometry": {
        "type": "Point",
        "coordinates": [
          13.4360827,
          52.565351
        ]
      }
    },
    {
      "type": "Feature",
      "id": "node/30733548",
      "properties": {
        "@id": "node/30733548",
        "name": "Heinersdorf",
        "public_transport": "stop_position"
      },
      "geometry": {
        "type": "Point",
        "coordinates": [
          13.4373637,
          52.573022
        ]
      }
    },
    {
      "type": "Feature",
      "id": "node/30740233",
      "properties": {
        "@id": "node/30740233",
        "addr:city": "Berlin",
        "addr:country": "DE",
        "addr:postcode": "12277",
        "addr:street": "Buckower Chaussee",
        "name": "S Buckower Chaussee",
        "phone": "+49 30 29743333",
        "public_transport": "stop_position",
        "railway": "stop",
        "station": "light_rail",
        "train": "yes",
        "website": "http://www.s-bahn-berlin.de/fahrplanundnetz/sbahnhof_anzeige.php?ID=47",
        "wheelchair": "yes",
        "wheelchair:description": "test",
        "wikipedia:de": "Bahnhof_Berlin_Buckower_Chaussee"
      },
      "geometry": {
        "type": "Point",
        "coordinates": [
          13.3829172,
          52.410344
        ]
      }
    },
    {
      "type": "Feature",
      "id": "node/31492303",
      "properties": {
        "@id": "node/31492303",
        "bus": "yes",
        "highway": "bus_stop",
        "name": "Müggelseeperle",
        "public_transport": "stop_position"
      },
      "geometry": {
        "type": "Point",
        "coordinates": [
          13.6411065,
          52.4215924
        ]
      }
    },
    {
      "type": "Feature",
      "id": "node/31493178",
      "properties": {
        "@id": "node/31493178",
        "ferry": "yes",
        "man_made": "pier",
        "name": "Dreibock",
        "operator": "BVG",
        "public_transport": "stop_position"
      },
      "geometry": {
        "type": "Point",
        "coordinates": [
          13.6833835,
          52.4289826
        ]
      }
    },
    {
      "type": "Feature",
      "id": "node/31493192",
      "properties": {
        "@id": "node/31493192",
        "ferry": "yes",
        "man_made": "pier",
        "name": "Müggelwerderweg",
        "operator": "BVG",
        "public_transport": "stop_position"
      },
      "geometry": {
        "type": "Point",
        "coordinates": [
          13.6807498,
          52.4363062
        ]
      }
    },
    {
      "type": "Feature",
      "id": "node/31496622",
      "properties": {
        "@id": "node/31496622",
        "bus": "yes",
        "highway": "bus_stop",
        "name": "Alt-Müggelheim",
        "public_transport": "stop_position"
      },
      "geometry": {
        "type": "Point",
        "coordinates": [
          13.6661955,
          52.4099455
        ]
      }
    },
    {
      "type": "Feature",
      "id": "node/31524735",
      "properties": {
        "@id": "node/31524735",
        "name": "Parkstraße",
        "public_transport": "stop_position",
        "railway": "tram_stop",
        "tram": "yes"
      },
      "geometry": {
        "type": "Point",
        "coordinates": [
          13.5394706,
          52.4576241
        ]
      }
    },
    {
      "type": "Feature",
      "id": "node/31729333",
      "properties": {
        "@id": "node/31729333",
        "name": "U Prinzenstraße",
        "public_transport": "stop_position",
        "wheelchair": "limited",
        "wheelchair:description": "Aufzug nur in Richtung Warschauer Straße"
      },
      "geometry": {
        "type": "Point",
        "coordinates": [
          13.4055402,
          52.4984088
        ]
      }
    },
    {
      "type": "Feature",
      "id": "node/34654812",
      "properties": {
        "@id": "node/34654812",
        "light_rail": "yes",
        "name": "S Buckower Chaussee",
        "operator": "S-Bahn Berlin GmbH",
        "public_transport": "stop_position",
        "railway": "stop",
        "train": "yes"
      },
      "geometry": {
        "type": "Point",
        "coordinates": [
          13.3828739,
          52.4102987
        ]
      }
    },
    {
      "type": "Feature",
      "id": "node/34663472",
      "properties": {
        "@id": "node/34663472",
        "light_rail": "yes",
        "name": "S Priesterweg",
        "operator": "S-Bahn Berlin GmbH",
        "public_transport": "stop_position"
      },
      "geometry": {
        "type": "Point",
        "coordinates": [
          13.3562824,
          52.4599169
        ]
      }
    },
    {
      "type": "Feature",
      "id": "node/34663477",
      "properties": {
        "@id": "node/34663477",
        "light_rail": "yes",
        "name": "S Priesterweg",
        "operator": "S-Bahn Berlin GmbH",
        "public_transport": "stop_position"
      },
      "geometry": {
        "type": "Point",
        "coordinates": [
          13.356476,
          52.4598868
        ]
      }
    },
    {
      "type": "Feature",
      "id": "node/34663482",
      "properties": {
        "@id": "node/34663482",
        "light_rail": "yes",
        "name": "S Priesterweg",
        "operator": "S-Bahn Berlin GmbH",
        "public_transport": "stop_position"
      },
      "geometry": {
        "type": "Point",
        "coordinates": [
          13.3562121,
          52.4599134
        ]
      }
    },
    {
      "type": "Feature",
      "id": "node/34666754",
      "properties": {
        "@id": "node/34666754",
        "layer": "2",
        "light_rail": "yes",
        "name": "S Westkreuz",
        "public_transport": "stop_position",
        "railway": "station",
        "railway:station_category": "3",
        "station": "light_rail",
        "website": "http://www.s-bahn-berlin.de/fahrplanundnetz/bahnhof/westkreuz/159",
        "wheelchair": "yes"
      },
      "geometry": {
        "type": "Point",
        "coordinates": [
          13.2839193,
          52.5007919
        ]
      }
    },
    {
      "type": "Feature",
      "id": "node/35215999",
      "properties": {
        "@id": "node/35215999",
        "bus": "yes",
        "name": "Am Kiesberg",
        "public_transport": "stop_position",
        "wheelchair": "limited"
      },
      "geometry": {
        "type": "Point",
        "coordinates": [
          13.5271035,
          52.422864
        ]
      }
    },
    {
      "type": "Feature",
      "id": "node/47786602",
      "properties": {
        "@id": "node/47786602",
        "light_rail": "yes",
        "name": "S Westkreuz",
        "operator": "S-Bahn Berlin GmbH",
        "public_transport": "stop_position"
      },
      "geometry": {
        "type": "Point",
        "coordinates": [
          13.2843985,
          52.5006721
        ]
      }
    },
    {
      "type": "Feature",
      "id": "node/55971821",
      "properties": {
        "@id": "node/55971821",
        "highway": "bus_stop",
        "public_transport": "stop_position"
      },
      "geometry": {
        "type": "Point",
        "coordinates": [
          13.5509983,
          52.5691069
        ]
      }
    },
    {
      "type": "Feature",
      "id": "node/64901636",
      "properties": {
        "@id": "node/64901636",
        "bus": "yes",
        "name": "Keltensteig",
        "public_transport": "stop_position"
      },
      "geometry": {
        "type": "Point",
        "coordinates": [
          13.5458338,
          52.4188627
        ]
      }
    },
    {
      "type": "Feature",
      "id": "node/64901639",
      "properties": {
        "@id": "node/64901639",
        "bus": "yes",
        "name": "Preußenstraße",
        "public_transport": "stop_position"
      },
      "geometry": {
        "type": "Point",
        "coordinates": [
          13.5532914,
          52.4176034
        ]
      }
    },
    {
      "type": "Feature",
      "id": "node/78522462",
      "properties": {
        "@id": "node/78522462",
        "light_rail": "yes",
        "name": "S Pichelsberg",
        "operator": "S-Bahn Berlin GmbH",
        "public_transport": "stop_position"
      },
      "geometry": {
        "type": "Point",
        "coordinates": [
          13.2277394,
          52.5100236
        ]
      }
    },
    {
      "type": "Feature",
      "id": "node/79408448",
      "properties": {
        "@id": "node/79408448",
        "name": "Friedrich-Wolf-Straße",
        "public_transport": "stop_position",
        "railway": "tram_stop"
      },
      "geometry": {
        "type": "Point",
        "coordinates": [
          13.5752791,
          52.4242972
        ]
      }
    },
    {
      "type": "Feature",
      "id": "node/81462758",
      "properties": {
        "@id": "node/81462758",
        "name": "Berlin-Spandau",
        "public_transport": "stop_position",
        "ref": "5"
      },
      "geometry": {
        "type": "Point",
        "coordinates": [
          13.1955887,
          52.5348012
        ]
      }
    },
    {
      "type": "Feature",
      "id": "node/86029990",
      "properties": {
        "@id": "node/86029990",
        "bus": "yes",
        "highway": "bus_stop",
        "name": "Salvador-Allende-Brücke",
        "public_transport": "stop_position",
        "wheelchair": "yes"
      },
      "geometry": {
        "type": "Point",
        "coordinates": [
          13.5938688,
          52.4480169
        ]
      }
    },
    {
      "type": "Feature",
      "id": "node/86030014",
      "properties": {
        "@id": "node/86030014",
        "bus": "yes",
        "highway": "bus_stop",
        "name": "Salvador-Allende-Brücke",
        "public_transport": "stop_position",
        "wheelchair": "yes"
      },
      "geometry": {
        "type": "Point",
        "coordinates": [
          13.5936533,
          52.4481159
        ]
      }
    },
    {
      "type": "Feature",
      "id": "node/91611104",
      "properties": {
        "@id": "node/91611104",
        "light_rail": "yes",
        "name": "S Blankenburg",
        "public_transport": "stop_position"
      },
      "geometry": {
        "type": "Point",
        "coordinates": [
          13.4436423,
          52.5914865
        ]
      }
    },
    {
      "type": "Feature",
      "id": "node/92141859",
      "properties": {
        "@id": "node/92141859",
        "bus": "yes",
        "name": "Moßkopfring",
        "public_transport": "stop_position"
      },
      "geometry": {
        "type": "Point",
        "coordinates": [
          13.6474619,
          52.3404227
        ]
      }
    },
    {
      "type": "Feature",
      "id": "node/94483147",
      "properties": {
        "@id": "node/94483147",
        "bus": "yes",
        "name": "Lübbenauer Weg",
        "operator": "BVG",
        "public_transport": "stop_position"
      },
      "geometry": {
        "type": "Point",
        "coordinates": [
          13.6350296,
          52.3912483
        ]
      }
    },
    {
      "type": "Feature",
      "id": "node/94487924",
      "properties": {
        "@id": "node/94487924",
        "bus": "yes",
        "name": "Altglienicke Kirche",
        "public_transport": "stop_position"
      },
      "geometry": {
        "type": "Point",
        "coordinates": [
          13.5394412,
          52.4218794
        ]
      }
    },
    {
      "type": "Feature",
      "id": "node/94487938",
      "properties": {
        "@id": "node/94487938",
        "bus": "yes",
        "name": "Altglienicker Brücke",
        "public_transport": "stop_position"
      },
      "geometry": {
        "type": "Point",
        "coordinates": [
          13.5435224,
          52.424352
        ]
      }
    },
    {
      "type": "Feature",
      "id": "node/94941339",
      "properties": {
        "@id": "node/94941339",
        "name": "Alte Försterei",
        "public_transport": "stop_position",
        "railway": "tram_stop",
        "tram": "yes",
        "wheelchair": "yes"
      },
      "geometry": {
        "type": "Point",
        "coordinates": [
          13.5631525,
          52.4565253
        ]
      }
    },
    {
      "type": "Feature",
      "id": "node/94941344",
      "properties": {
        "@id": "node/94941344",
        "name": "Spindlersfelder Straße",
        "public_transport": "stop_position",
        "railway": "tram_stop",
        "tram": "yes",
        "wheelchair": "yes"
      },
      "geometry": {
        "type": "Point",
        "coordinates": [
          13.5586012,
          52.455916
        ]
      }
    },
    {
      "type": "Feature",
      "id": "node/94941350",
      "properties": {
        "@id": "node/94941350",
        "name": "Nixenstraße",
        "public_transport": "stop_position",
        "railway": "tram_stop",
        "tram": "yes",
        "wheelchair": "yes"
      },
      "geometry": {
        "type": "Point",
        "coordinates": [
          13.5501064,
          52.4566234
        ]
      }
    },
    {
      "type": "Feature",
      "id": "node/94941359",
      "properties": {
        "@id": "node/94941359",
        "name": "Freizeit- und Erholungszentrum",
        "public_transport": "stop_position",
        "railway": "tram_stop",
        "tram": "yes",
        "wheelchair": "yes"
      },
      "geometry": {
        "type": "Point",
        "coordinates": [
          13.5436826,
          52.4575557
        ]
      }
    },
    {
      "type": "Feature",
      "id": "node/94951419",
      "properties": {
        "@id": "node/94951419",
        "name": "Schloßplatz Köpenick",
        "note": "only to east",
        "public_transport": "stop_position",
        "railway": "tram_stop",
        "tram": "yes",
        "wheelchair": "yes"
      },
      "geometry": {
        "type": "Point",
        "coordinates": [
          13.5753837,
          52.4443409
        ]
      }
    },
    {
      "type": "Feature",
      "id": "node/94963733",
      "properties": {
        "@id": "node/94963733",
        "name": "S Spindlersfeld",
        "public_transport": "stop_position",
        "railway": "tram_stop",
        "tram": "yes",
        "wheelchair": "yes"
      },
      "geometry": {
        "type": "Point",
        "coordinates": [
          13.5620717,
          52.4453397
        ]
      }
    },
    {
      "type": "Feature",
      "id": "node/95948746",
      "properties": {
        "@id": "node/95948746",
        "name": "Krankenhaus Köpenick/Südseite",
        "public_transport": "stop_position",
        "railway": "tram_stop",
        "tram": "yes",
        "wheelchair": "yes"
      },
      "geometry": {
        "type": "Point",
        "coordinates": [
          13.5920833,
          52.4388446
        ]
      }
    },
    {
      "type": "Feature",
      "id": "node/98862012",
      "properties": {
        "@id": "node/98862012",
        "bus": "no",
        "image": "http://bilder.berlin-platz.de/2010-05-08/P1000028.JPG",
        "name": "Alt-Marzahn",
        "public_transport": "stop_position",
        "railway": "tram_stop",
        "shelter": "yes",
        "tactile_paving": "yes",
        "tram": "yes",
        "wheelchair": "yes"
      },
      "geometry": {
        "type": "Point",
        "coordinates": [
          13.5636472,
          52.541869
        ]
      }
    },
    {
      "type": "Feature",
      "id": "node/98867660",
      "properties": {
        "@id": "node/98867660",
        "bus": "no",
        "name": "Ahrensfelde",
        "operator": "BVG",
        "public_transport": "stop_position",
        "railway": "tram_stop",
        "tram": "yes"
      },
      "geometry": {
        "type": "Point",
        "coordinates": [
          13.57487,
          52.5729837
        ]
      }
    },
    {
      "type": "Feature",
      "id": "node/98884328",
      "properties": {
        "@id": "node/98884328",
        "name": "Gehrenseestraße",
        "public_transport": "stop_position",
        "railway": "tram_stop",
        "ref:BVG": "309194",
        "tactile_paving": "yes",
        "website": "http://qr.bvg.de/h309194"
      },
      "geometry": {
        "type": "Point",
        "coordinates": [
          13.5094994,
          52.5508672
        ]
      }
    },
    {
      "type": "Feature",
      "id": "node/101338586",
      "properties": {
        "@id": "node/101338586",
        "bus": "yes",
        "name": "Ottomar-Geschke-Straße",
        "public_transport": "stop_position"
      },
      "geometry": {
        "type": "Point",
        "coordinates": [
          13.5593347,
          52.4419029
        ]
      }
    },
    {
      "type": "Feature",
      "id": "node/110124633",
      "properties": {
        "@id": "node/110124633",
        "name": "S Halensee",
        "operator": "S-Bahn Berlin GmbH",
        "public_transport": "stop_position"
      },
      "geometry": {
        "type": "Point",
        "coordinates": [
          13.2903183,
          52.4960643
        ]
      }
    },
    {
      "type": "Feature",
      "id": "node/113639023",
      "properties": {
        "@id": "node/113639023",
        "bus": "no",
        "name": "Hauptstraße/Rhinstraße",
        "public_transport": "stop_position",
        "railway": "tram_stop",
        "ref:BVG": "309532",
        "tram": "yes",
        "website": "http://qr.bvg.de/h309532",
        "wheelchair": "yes"
      },
      "geometry": {
        "type": "Point",
        "coordinates": [
          13.5051908,
          52.5487991
        ]
      }
    },
    {
      "type": "Feature",
      "id": "node/123139225",
      "properties": {
        "@id": "node/123139225",
        "name": "Reifenwerk",
        "public_transport": "stop_position",
        "railway": "tram_stop",
        "tram": "yes"
      },
      "geometry": {
        "type": "Point",
        "coordinates": [
          13.6404977,
          52.3816352
        ]
      }
    },
    {
      "type": "Feature",
      "id": "node/123139240",
      "properties": {
        "@id": "node/123139240",
        "name": "Adlergestell/Vetschauer Allee",
        "public_transport": "stop_position",
        "railway": "tram_stop",
        "tram": "yes"
      },
      "geometry": {
        "type": "Point",
        "coordinates": [
          13.6337202,
          52.3863437
        ]
      }
    },
    {
      "type": "Feature",
      "id": "node/123139267",
      "properties": {
        "@id": "node/123139267",
        "name": "Lübbenauer Weg",
        "public_transport": "stop_position",
        "railway": "tram_stop",
        "tram": "yes"
      },
      "geometry": {
        "type": "Point",
        "coordinates": [
          13.6349375,
          52.3911239
        ]
      }
    },
    {
      "type": "Feature",
      "id": "node/128376788",
      "properties": {
        "@id": "node/128376788",
        "name": "S Messe Nord/ICC",
        "public_transport": "stop_position"
      },
      "geometry": {
        "type": "Point",
        "coordinates": [
          13.2830546,
          52.5072942
        ]
      }
    },
    {
      "type": "Feature",
      "id": "node/129255755",
      "properties": {
        "@id": "node/129255755",
        "bus": "yes",
        "name": "Glienicker Straße",
        "public_transport": "stop_position",
        "railway": "tram_stop",
        "tram": "yes"
      },
      "geometry": {
        "type": "Point",
        "coordinates": [
          13.5703675,
          52.4408455
        ]
      }
    },
    {
      "type": "Feature",
      "id": "node/129652637",
      "properties": {
        "@id": "node/129652637",
        "bus": "yes",
        "name": "U Rudow",
        "public_transport": "stop_position",
        "wheelchair": "limited"
      },
      "geometry": {
        "type": "Point",
        "coordinates": [
          13.4980239,
          52.4156966
        ]
      }
    },
    {
      "type": "Feature",
      "id": "node/141801940",
      "properties": {
        "@id": "node/141801940",
        "name": "Berlin-Staaken",
        "note": "\"Berlin-Staaken\" ist die offizielle Betriebsstellenbezeichnung",
        "operator": "Deutsche Bahn",
        "public_transport": "stop_position",
        "railway": "halt",
        "railway:ref": "BSTA",
        "wheelchair": "yes"
      },
      "geometry": {
        "type": "Point",
        "coordinates": [
          13.1405355,
          52.5378111
        ]
      }
    },
    {
      "type": "Feature",
      "id": "node/162081850",
      "properties": {
        "@id": "node/162081850",
        "name": "Philharmonie",
        "network": "VBB",
        "operator": "BVG",
        "public_transport": "stop_position",
        "ref": "103687",
        "wheelchair": "yes"
      },
      "geometry": {
        "type": "Point",
        "coordinates": [
          13.368624,
          52.5102365
        ]
      }
    },
    {
      "type": "Feature",
      "id": "node/213209586",
      "properties": {
        "@id": "node/213209586",
        "bus": "yes",
        "name": "Prerower Platz",
        "public_transport": "stop_position",
        "tactile_paving": "yes",
        "type": "public_transport"
      },
      "geometry": {
        "type": "Point",
        "coordinates": [
          13.5040518,
          52.562968
        ]
      }
    },
    {
      "type": "Feature",
      "id": "node/213209907",
      "properties": {
        "@id": "node/213209907",
        "bus": "yes",
        "name": "Prerower Platz",
        "public_transport": "stop_position",
        "type": "public_transport"
      },
      "geometry": {
        "type": "Point",
        "coordinates": [
          13.5060833,
          52.5634579
        ]
      }
    },
    {
      "type": "Feature",
      "id": "node/213216563",
      "properties": {
        "@id": "node/213216563",
        "bus": "yes",
        "name": "Welsestraße",
        "public_transport": "stop_position",
        "tram": "no"
      },
      "geometry": {
        "type": "Point",
        "coordinates": [
          13.5274949,
          52.5694856
        ]
      }
    },
    {
      "type": "Feature",
      "id": "node/243458261",
      "properties": {
        "@id": "node/243458261",
        "bus": "no",
        "name": "Prerower Platz",
        "public_transport": "stop_position",
        "railway": "tram_stop",
        "ref:BVG": "309520",
        "tram": "yes",
        "website": "http://qr.bvg.de/h309520",
        "wheelchair": "yes"
      },
      "geometry": {
        "type": "Point",
        "coordinates": [
          13.5037009,
          52.5627532
        ]
      }
    },
    {
      "type": "Feature",
      "id": "node/243465657",
      "properties": {
        "@id": "node/243465657",
        "bus": "no",
        "name": "Welsestraße",
        "public_transport": "stop_position",
        "railway": "tram_stop",
        "ref:BVG": "305821",
        "tram": "yes",
        "website": "http://qr.bvg.de/h309821"
      },
      "geometry": {
        "type": "Point",
        "coordinates": [
          13.5258916,
          52.5692786
        ]
      }
    },
    {
      "type": "Feature",
      "id": "node/243850922",
      "properties": {
        "@id": "node/243850922",
        "name": "Rothenbachstraße",
        "public_transport": "stop_position",
        "railway": "tram_stop",
        "wheelchair": "limited"
      },
      "geometry": {
        "type": "Point",
        "coordinates": [
          13.4377259,
          52.5699863
        ]
      }
    },
    {
      "type": "Feature",
      "id": "node/247119325",
      "properties": {
        "@id": "node/247119325",
        "name": "S Köpenick",
        "public_transport": "stop_position",
        "railway": "tram_stop",
        "tram": "yes",
        "wheelchair": "yes"
      },
      "geometry": {
        "type": "Point",
        "coordinates": [
          13.5800655,
          52.4593448
        ]
      }
    },
    {
      "type": "Feature",
      "id": "node/247140929",
      "properties": {
        "@id": "node/247140929",
        "name": "S Köpenick",
        "public_transport": "stop_position",
        "railway": "tram_stop",
        "tram": "yes",
        "wheelchair": "yes"
      },
      "geometry": {
        "type": "Point",
        "coordinates": [
          13.578862,
          52.458016
        ]
      }
    },
    {
      "type": "Feature",
      "id": "node/247156814",
      "properties": {
        "@id": "node/247156814",
        "name": "Rathenaustraße/HTW",
        "public_transport": "stop_position",
        "railway": "tram_stop",
        "speisebezirk": "querverbinder",
        "tram": "yes",
        "wheelchair": "limited"
      },
      "geometry": {
        "type": "Point",
        "coordinates": [
          13.5258742,
          52.4587748
        ]
      }
    },
    {
      "type": "Feature",
      "id": "node/247158622",
      "properties": {
        "@id": "node/247158622",
        "name": "Treskowallee/Volkspark Wuhlheide",
        "public_transport": "stop_position",
        "railway": "tram_stop",
        "tram": "yes",
        "wheelchair": "yes"
      },
      "geometry": {
        "type": "Point",
        "coordinates": [
          13.5172971,
          52.4711791
        ]
      }
    },
    {
      "type": "Feature",
      "id": "node/247159172",
      "properties": {
        "@id": "node/247159172",
        "name": "Hegemeisterweg",
        "public_transport": "stop_position",
        "railway": "tram_stop",
        "tram": "yes",
        "wheelchair": "yes"
      },
      "geometry": {
        "type": "Point",
        "coordinates": [
          13.5204016,
          52.4741663
        ]
      }
    },
    {
      "type": "Feature",
      "id": "node/247351455",
      "properties": {
        "@id": "node/247351455",
        "name": "S Schöneweide/Sterndamm",
        "note": "Richtung S Schöneweide",
        "public_transport": "stop_position",
        "railway": "tram_stop",
        "ref:BVG": "309706",
        "tram": "yes",
        "website": "http://qr.bvg.de/h309706",
        "wheelchair": "yes"
      },
      "geometry": {
        "type": "Point",
        "coordinates": [
          13.5096381,
          52.4534397
        ]
      }
    },
    {
      "type": "Feature",
      "id": "node/247352251",
      "properties": {
        "@id": "node/247352251",
        "name": "Pietschkerstraße",
        "public_transport": "stop_position",
        "railway": "tram_stop",
        "tram": "yes",
        "wheelchair": "yes"
      },
      "geometry": {
        "type": "Point",
        "coordinates": [
          13.5079617,
          52.4505494
        ]
      }
    },
    {
      "type": "Feature",
      "id": "node/247352344",
      "properties": {
        "@id": "node/247352344",
        "name": "Sterndamm/Königsheideweg",
        "public_transport": "stop_position",
        "railway": "tram_stop",
        "tram": "yes"
      },
      "geometry": {
        "type": "Point",
        "coordinates": [
          13.5068261,
          52.4470965
        ]
      }
    },
    {
      "type": "Feature",
      "id": "node/247354058",
      "properties": {
        "@id": "node/247354058",
        "bus": "yes",
        "highway": "bus_stop",
        "name": "Johannisthal Kirche",
        "public_transport": "stop_position"
      },
      "geometry": {
        "type": "Point",
        "coordinates": [
          13.503877,
          52.4442354
        ]
      }
    },
    {
      "type": "Feature",
      "id": "node/247361247",
      "properties": {
        "@id": "node/247361247",
        "bus": "yes",
        "highway": "bus_stop",
        "name": "Rathaus Köpenick",
        "note": "only to south",
        "public_transport": "stop_position",
        "railway": "tram_stop",
        "shelter": "yes",
        "tram": "yes",
        "wheelchair": "yes"
      },
      "geometry": {
        "type": "Point",
        "coordinates": [
          13.5742884,
          52.4453426
        ]
      }
    },
    {
      "type": "Feature",
      "id": "node/247361594",
      "properties": {
        "@id": "node/247361594",
        "name": "Köllnischer Platz",
        "public_transport": "stop_position",
        "railway": "tram_stop",
        "tram": "yes",
        "wheelchair": "yes"
      },
      "geometry": {
        "type": "Point",
        "coordinates": [
          13.567996,
          52.4448698
        ]
      }
    },
    {
      "type": "Feature",
      "id": "node/247362578",
      "properties": {
        "@id": "node/247362578",
        "name": "Ottomar-Geschke-Straße",
        "public_transport": "stop_position",
        "railway": "tram_stop",
        "tram": "yes"
      },
      "geometry": {
        "type": "Point",
        "coordinates": [
          13.5588867,
          52.4418045
        ]
      }
    },
    {
      "type": "Feature",
      "id": "node/247362579",
      "properties": {
        "@id": "node/247362579",
        "name": "Ottomar-Geschke-Straße",
        "public_transport": "stop_position",
        "railway": "tram_stop",
        "tram": "yes"
      },
      "geometry": {
        "type": "Point",
        "coordinates": [
          13.5594516,
          52.4418687
        ]
      }
    },
    {
      "type": "Feature",
      "id": "node/247600965",
      "properties": {
        "@id": "node/247600965",
        "name": "S+U Friedrichstraße",
        "public_transport": "stop_position",
        "railway": "tram_stop",
        "tram": "yes",
        "wheelchair": "no"
      },
      "geometry": {
        "type": "Point",
        "coordinates": [
          13.3884161,
          52.5192805
        ]
      }
    },
    {
      "type": "Feature",
      "id": "node/248077800",
      "properties": {
        "@id": "node/248077800",
        "description": "S Wilhelmsruh",
        "name": "S Wilhelmsruh",
        "public_transport": "stop_position",
        "railway": "stop",
        "ref": "2"
      },
      "geometry": {
        "type": "Point",
        "coordinates": [
          13.3621174,
          52.5816535
        ]
      }
    },
    {
      "type": "Feature",
      "id": "node/248086110",
      "properties": {
        "@id": "node/248086110",
        "light_rail": "yes",
        "name": "S Wuhlheide",
        "public_transport": "stop_position"
      },
      "geometry": {
        "type": "Point",
        "coordinates": [
          13.5534889,
          52.4690134
        ]
      }
    },
    {
      "type": "Feature",
      "id": "node/248457683",
      "properties": {
        "@id": "node/248457683",
        "bus": "yes",
        "name": "U Osloer Straße",
        "public_transport": "stop_position",
        "subway": "no",
        "tram": "no"
      },
      "geometry": {
        "type": "Point",
        "coordinates": [
          13.3729177,
          52.5575043
        ]
      }
    },
    {
      "type": "Feature",
      "id": "node/249189069",
      "properties": {
        "@id": "node/249189069",
        "addr:city": "Berlin",
        "addr:country": "DE",
        "addr:housenumber": "2",
        "addr:postcode": "13357",
        "addr:street": "Wiesenstraße",
        "addr:suburb": "Gesundbrunnen",
        "layer": "-1",
        "level": "-1",
        "name": "S Humboldthain",
        "phone": "030 29743333",
        "public_transport": "stop_position",
        "railway": "stop",
        "station": "light_rail",
        "train": "yes",
        "website": "http://www.s-bahn-berlin.de/fahrplanundnetz/bahnhof/uebersicht/82",
        "wheelchair": "yes"
      },
      "geometry": {
        "type": "Point",
        "coordinates": [
          13.3792576,
          52.5447617
        ]
      }
    },
    {
      "type": "Feature",
      "id": "node/253845582",
      "properties": {
        "@id": "node/253845582",
        "name": "U Bundestag",
        "public_transport": "stop_position",
        "railway": "station",
        "station": "subway",
        "subway": "yes",
        "surveillance": "public",
        "tactile_paving": "yes",
        "wheelchair": "yes"
      },
      "geometry": {
        "type": "Point",
        "coordinates": [
          13.3730284,
          52.5201811
        ]
      }
    },
    {
      "type": "Feature",
      "id": "node/253846340",
      "properties": {
        "@id": "node/253846340",
        "name": "U Brandenburger Tor",
        "public_transport": "stop_position",
        "railway": "stop",
        "station": "subway",
        "subway": "yes",
        "surveillance": "public",
        "tactile_paving": "yes",
        "wheelchair": "no"
      },
      "geometry": {
        "type": "Point",
        "coordinates": [
          13.3811741,
          52.5166117
        ]
      }
    },
    {
      "type": "Feature",
      "id": "node/254839386",
      "properties": {
        "@id": "node/254839386",
        "name": "Wendenschloß",
        "public_transport": "stop_position",
        "railway": "tram_stop",
        "tram": "yes",
        "wheelchair": "yes"
      },
      "geometry": {
        "type": "Point",
        "coordinates": [
          13.5885926,
          52.4169658
        ]
      }
    },
    {
      "type": "Feature",
      "id": "node/256045565",
      "properties": {
        "@id": "node/256045565",
        "bus": "yes",
        "name": "Dubliner Straße",
        "public_transport": "stop_position"
      },
      "geometry": {
        "type": "Point",
        "coordinates": [
          13.3484572,
          52.5622526
        ]
      }
    },
    {
      "type": "Feature",
      "id": "node/260590089",
      "properties": {
        "@id": "node/260590089",
        "bus": "yes",
        "name": "Bohnsdorf Kirche",
        "public_transport": "stop_position"
      },
      "geometry": {
        "type": "Point",
        "coordinates": [
          13.5545999,
          52.399133
        ]
      }
    },
    {
      "type": "Feature",
      "id": "node/260620359",
      "properties": {
        "@id": "node/260620359",
        "name": "S Lichterfelde Ost",
        "public_transport": "stop_position",
        "railway": "stop",
        "station": "light_rail",
        "train": "yes",
        "wheelchair": "yes",
        "wikipedia:de": "Bahnhof_Berlin-Lichterfelde_Ost"
      },
      "geometry": {
        "type": "Point",
        "coordinates": [
          13.3278115,
          52.429745
        ]
      }
    },
    {
      "type": "Feature",
      "id": "node/260759770",
      "properties": {
        "@id": "node/260759770",
        "image": "http://upload.wikimedia.org/wikipedia/commons/f/f7/Lio_2008.JPG",
        "name": "Berlin-Lichterfelde Ost",
        "public_transport": "stop_position",
        "railway": "stop",
        "train": "yes",
        "wheelchair": "yes",
        "wikipedia:de": "Bahnhof_Berlin-Lichterfelde_Ost"
      },
      "geometry": {
        "type": "Point",
        "coordinates": [
          13.3284117,
          52.4293203
        ]
      }
    },
    {
      "type": "Feature",
      "id": "node/260760064",
      "properties": {
        "@id": "node/260760064",
        "bus": "yes",
        "highway": "bus_stop",
        "name": "Alt-Müggelheim",
        "public_transport": "stop_position"
      },
      "geometry": {
        "type": "Point",
        "coordinates": [
          13.6658965,
          52.4101571
        ]
      }
    },
    {
      "type": "Feature",
      "id": "node/260797809",
      "properties": {
        "@id": "node/260797809",
        "bus": "yes",
        "name": "Waldstraße/Stadtgrenze",
        "public_transport": "stop_position",
        "wheelchair": "yes"
      },
      "geometry": {
        "type": "Point",
        "coordinates": [
          13.5709847,
          52.3899185
        ]
      }
    },
    {
      "type": "Feature",
      "id": "node/261744786",
      "properties": {
        "@id": "node/261744786",
        "light_rail": "yes",
        "name": "S Schöneweide",
        "public_transport": "stop_position",
        "wheelchair": "yes"
      },
      "geometry": {
        "type": "Point",
        "coordinates": [
          13.5091121,
          52.4553735
        ]
      }
    },
    {
      "type": "Feature",
      "id": "node/261750068",
      "properties": {
        "@id": "node/261750068",
        "light_rail": "yes",
        "public_transport": "stop_position"
      },
      "geometry": {
        "type": "Point",
        "coordinates": [
          13.4624304,
          52.4942114
        ]
      }
    },
    {
      "type": "Feature",
      "id": "node/261751113",
      "properties": {
        "@id": "node/261751113",
        "light_rail": "yes",
        "name": "S Plänterwald",
        "public_transport": "stop_position"
      },
      "geometry": {
        "type": "Point",
        "coordinates": [
          13.4740382,
          52.4779045
        ]
      }
    },
    {
      "type": "Feature",
      "id": "node/261752826",
      "properties": {
        "@id": "node/261752826",
        "bus": "yes",
        "highway": "bus_stop",
        "name": "S Plänterwald",
        "public_transport": "stop_position"
      },
      "geometry": {
        "type": "Point",
        "coordinates": [
          13.474418,
          52.4790209
        ]
      }
    },
    {
      "type": "Feature",
      "id": "node/261855390",
      "properties": {
        "@id": "node/261855390",
        "light_rail": "yes",
        "name": "S Baumschulenweg",
        "public_transport": "stop_position"
      },
      "geometry": {
        "type": "Point",
        "coordinates": [
          13.4890939,
          52.4680304
        ]
      }
    },
    {
      "type": "Feature",
      "id": "node/262088144",
      "properties": {
        "@id": "node/262088144",
        "bus": "yes",
        "fixme": "alter highway=bus_stop wurde umgestellt. genaue Abfahrtspunkte der Buslinien fehlen noch",
        "public_transport": "stop_position"
      },
      "geometry": {
        "type": "Point",
        "coordinates": [
          13.5892786,
          52.5128097
        ]
      }
    },
    {
      "type": "Feature",
      "id": "node/262150017",
      "properties": {
        "@id": "node/262150017",
        "bus": "yes",
        "name": "Alt-Schmöckwitz",
        "public_transport": "stop_position"
      },
      "geometry": {
        "type": "Point",
        "coordinates": [
          13.6495227,
          52.375916
        ]
      }
    },
    {
      "type": "Feature",
      "id": "node/262201692",
      "properties": {
        "@id": "node/262201692",
        "bus": "yes",
        "name": "Ostweg",
        "public_transport": "stop_position"
      },
      "geometry": {
        "type": "Point",
        "coordinates": [
          13.4955022,
          52.449016
        ]
      }
    },
    {
      "type": "Feature",
      "id": "node/262314742",
      "properties": {
        "@id": "node/262314742",
        "bus": "yes",
        "name": "Waltersdorfer Straße",
        "public_transport": "stop_position",
        "wheelchair": "yes"
      },
      "geometry": {
        "type": "Point",
        "coordinates": [
          13.5723254,
          52.4047051
        ]
      }
    },
    {
      "type": "Feature",
      "id": "node/262322666",
      "properties": {
        "@id": "node/262322666",
        "light_rail": "yes",
        "name": "S Baumschulenweg",
        "public_transport": "stop_position"
      },
      "geometry": {
        "type": "Point",
        "coordinates": [
          13.4902978,
          52.4670034
        ]
      }
    },
    {
      "type": "Feature",
      "id": "node/262326860",
      "properties": {
        "@id": "node/262326860",
        "bus": "yes",
        "name": "Krematorium Baumschulenweg",
        "public_transport": "stop_position"
      },
      "geometry": {
        "type": "Point",
        "coordinates": [
          13.4943055,
          52.4604555
        ]
      }
    },
    {
      "type": "Feature",
      "id": "node/262343346",
      "properties": {
        "@id": "node/262343346",
        "bus": "yes",
        "highway": "bus_stop",
        "name": "Chausseehaus",
        "public_transport": "stop_position"
      },
      "geometry": {
        "type": "Point",
        "coordinates": [
          13.6157292,
          52.4295773
        ]
      }
    },
    {
      "type": "Feature",
      "id": "node/262882408",
      "properties": {
        "@id": "node/262882408",
        "amenity": "ferry_terminal",
        "cargo": "passengers",
        "ferry": "yes",
        "name": "Zum Seeblick",
        "public_transport": "stop_position"
      },
      "geometry": {
        "type": "Point",
        "coordinates": [
          13.6452357,
          52.3828931
        ]
      }
    },
    {
      "type": "Feature",
      "id": "node/263125699",
      "properties": {
        "@id": "node/263125699",
        "name": "S Innsbrucker Platz",
        "public_transport": "stop_position"
      },
      "geometry": {
        "type": "Point",
        "coordinates": [
          13.3406265,
          52.4781908
        ]
      }
    },
    {
      "type": "Feature",
      "id": "node/264226500",
      "properties": {
        "@id": "node/264226500",
        "bus": "yes",
        "highway": "bus_stop",
        "name": "S Hermsdorf",
        "network": "BVG",
        "operator": "BVG",
        "public_transport": "stop_position",
        "ref": "9093201"
      },
      "geometry": {
        "type": "Point",
        "coordinates": [
          13.3072894,
          52.6187034
        ]
      }
    },
    {
      "type": "Feature",
      "id": "node/265767348",
      "properties": {
        "@id": "node/265767348",
        "bus": "yes",
        "name": "Waltersdorfer Straße",
        "public_transport": "stop_position"
      },
      "geometry": {
        "type": "Point",
        "coordinates": [
          13.5729779,
          52.4053216
        ]
      }
    },
    {
      "type": "Feature",
      "id": "node/266326461",
      "properties": {
        "@id": "node/266326461",
        "designation": "Gleis 4",
        "level": "2",
        "operator": "DB",
        "public_transport": "stop_position",
        "railway": "stop",
        "ref": "4",
        "train": "yes"
      },
      "geometry": {
        "type": "Point",
        "coordinates": [
          13.3318804,
          52.5069086
        ]
      }
    },
    {
      "type": "Feature",
      "id": "node/266559224",
      "properties": {
        "@id": "node/266559224",
        "bus": "no",
        "name": "Wuhletalstraße",
        "public_transport": "stop_position",
        "railway": "tram_stop",
        "tram": "yes",
        "wheelchair": "yes"
      },
      "geometry": {
        "type": "Point",
        "coordinates": [
          13.5680515,
          52.5573506
        ]
      }
    },
    {
      "type": "Feature",
      "id": "node/267250949",
      "properties": {
        "@id": "node/267250949",
        "bus": "yes",
        "highway": "bus_stop",
        "name": "Rehborner Straße",
        "public_transport": "stop_position"
      },
      "geometry": {
        "type": "Point",
        "coordinates": [
          13.6729955,
          52.418809
        ]
      }
    },
    {
      "type": "Feature",
      "id": "node/267250957",
      "properties": {
        "@id": "node/267250957",
        "bus": "yes",
        "highway": "bus_stop",
        "name": "Müggelheim/Dorf",
        "public_transport": "stop_position",
        "wheelchair": "yes"
      },
      "geometry": {
        "type": "Point",
        "coordinates": [
          13.6622187,
          52.4122718
        ]
      }
    },
    {
      "type": "Feature",
      "id": "node/268680429",
      "properties": {
        "@id": "node/268680429",
        "name": "S Schulzendorf",
        "public_transport": "stop_position",
        "rail": "yes",
        "railway": "stop",
        "ref": "BSZF",
        "station": "light_rail",
        "subway": "no",
        "train": "yes",
        "wheelchair": "yes"
      },
      "geometry": {
        "type": "Point",
        "coordinates": [
          13.2460717,
          52.6129487
        ]
      }
    },
    {
      "type": "Feature",
      "id": "node/270165592",
      "properties": {
        "@id": "node/270165592",
        "name": "U Uhlandstraße",
        "public_transport": "stop_position",
        "wheelchair": "yes"
      },
      "geometry": {
        "type": "Point",
        "coordinates": [
          13.326881,
          52.5028412
        ]
      }
    },
    {
      "type": "Feature",
      "id": "node/270720402",
      "properties": {
        "@id": "node/270720402",
        "name": "Mollstraße/Prenzlauer Allee",
        "public_transport": "stop_position",
        "type": "public_transport",
        "wheelchair": "limited"
      },
      "geometry": {
        "type": "Point",
        "coordinates": [
          13.4148233,
          52.5264119
        ]
      }
    },
    {
      "type": "Feature",
      "id": "node/271458829",
      "properties": {
        "@id": "node/271458829",
        "bus": "yes",
        "name": "Bohnsdorf Kirche",
        "public_transport": "stop_position"
      },
      "geometry": {
        "type": "Point",
        "coordinates": [
          13.5557436,
          52.3997595
        ]
      }
    },
    {
      "type": "Feature",
      "id": "node/272425680",
      "properties": {
        "@id": "node/272425680",
        "name": "Philharmonie",
        "network": "VBB",
        "operator": "BVG",
        "public_transport": "stop_position",
        "ref": "101632",
        "wheelchair": "yes"
      },
      "geometry": {
        "type": "Point",
        "coordinates": [
          13.3684926,
          52.5104082
        ]
      }
    },
    {
      "type": "Feature",
      "id": "node/274954929",
      "properties": {
        "@id": "node/274954929",
        "bus": "yes",
        "highway": "bus_stop",
        "name": "Kienappelweg",
        "public_transport": "stop_position"
      },
      "geometry": {
        "type": "Point",
        "coordinates": [
          13.6032976,
          52.4344371
        ]
      }
    },
    {
      "type": "Feature",
      "id": "node/282699912",
      "properties": {
        "@id": "node/282699912",
        "name": "S Nikolassee",
        "public_transport": "stop_position",
        "railway": "stop",
        "station": "light_rail",
        "train": "yes",
        "wheelchair": "yes"
      },
      "geometry": {
        "type": "Point",
        "coordinates": [
          13.1941056,
          52.4319083
        ]
      }
    },
    {
      "type": "Feature",
      "id": "node/289551003",
      "properties": {
        "@id": "node/289551003",
        "bus": "yes",
        "highway": "bus_stop",
        "name": "Ludwigshöheweg",
        "public_transport": "stop_position",
        "wheelchair": "limited"
      },
      "geometry": {
        "type": "Point",
        "coordinates": [
          13.6564024,
          52.4153473
        ]
      }
    },
    {
      "type": "Feature",
      "id": "node/289551020",
      "properties": {
        "@id": "node/289551020",
        "bus": "yes",
        "highway": "bus_stop",
        "name": "Ludwigshöheweg",
        "public_transport": "stop_position",
        "wheelchair": "limited"
      },
      "geometry": {
        "type": "Point",
        "coordinates": [
          13.6563727,
          52.4152498
        ]
      }
    },
    {
      "type": "Feature",
      "id": "node/289551166",
      "properties": {
        "@id": "node/289551166",
        "bus": "yes",
        "highway": "bus_stop",
        "name": "Müggelheim/Dorf",
        "public_transport": "stop_position"
      },
      "geometry": {
        "type": "Point",
        "coordinates": [
          13.6618357,
          52.4120509
        ]
      }
    },
    {
      "type": "Feature",
      "id": "node/289551232",
      "properties": {
        "@id": "node/289551232",
        "bus": "yes",
        "highway": "bus_stop",
        "name": "Annweilerweg",
        "public_transport": "stop_position"
      },
      "geometry": {
        "type": "Point",
        "coordinates": [
          13.6673822,
          52.4149873
        ]
      }
    },
    {
      "type": "Feature",
      "id": "node/289666280",
      "properties": {
        "@id": "node/289666280",
        "layer": "-1",
        "level": "-1",
        "name": "S Gesundbrunnen",
        "operator": "DB",
        "public_transport": "stop_position",
        "railway": "stop",
        "ref": "9",
        "train": "yes"
      },
      "geometry": {
        "type": "Point",
        "coordinates": [
          13.3894561,
          52.5484472
        ]
      }
    },
    {
      "type": "Feature",
      "id": "node/289666288",
      "properties": {
        "@id": "node/289666288",
        "layer": "-1",
        "level": "-1",
        "name": "S Gesundbrunnen",
        "operator": "DB",
        "public_transport": "stop_position",
        "railway": "stop",
        "ref": "6",
        "train": "yes"
      },
      "geometry": {
        "type": "Point",
        "coordinates": [
          13.3894339,
          52.548724
        ]
      }
    },
    {
      "type": "Feature",
      "id": "node/290014075",
      "properties": {
        "@id": "node/290014075",
        "bus": "yes",
        "name": "Mahonienweg",
        "public_transport": "stop_position"
      },
      "geometry": {
        "type": "Point",
        "coordinates": [
          13.4800895,
          52.4534731
        ]
      }
    },
    {
      "type": "Feature",
      "id": "node/290175314",
      "properties": {
        "@id": "node/290175314",
        "level": "1",
        "light_rail": "yes",
        "public_transport": "stop_position",
        "railway": "stop",
        "train": "yes",
        "wheelchair": "yes"
      },
      "geometry": {
        "type": "Point",
        "coordinates": [
          13.3721793,
          52.4914653
        ]
      }
    },
    {
      "type": "Feature",
      "id": "node/291596516",
      "properties": {
        "@id": "node/291596516",
        "bus": "yes",
        "name": "Kaserne Hottengrund",
        "public_transport": "stop_position"
      },
      "geometry": {
        "type": "Point",
        "coordinates": [
          13.1272342,
          52.4473821
        ]
      }
    },
    {
      "type": "Feature",
      "id": "node/296614492",
      "properties": {
        "@id": "node/296614492",
        "bus": "yes",
        "highway": "bus_stop",
        "name": "Müggelheimer Straße/Wendenschloßstraße",
        "public_transport": "stop_position",
        "wheelchair": "yes"
      },
      "geometry": {
        "type": "Point",
        "coordinates": [
          13.5820084,
          52.442225
        ]
      }
    },
    {
      "type": "Feature",
      "id": "node/296885381",
      "properties": {
        "@id": "node/296885381",
        "bus": "yes",
        "highway": "bus_stop",
        "name": "Schloßplatz Köpenick",
        "public_transport": "stop_position",
        "shelter": "yes",
        "wheelchair": "yes"
      },
      "geometry": {
        "type": "Point",
        "coordinates": [
          13.5747874,
          52.4444917
        ]
      }
    },
    {
      "type": "Feature",
      "id": "node/296939563",
      "properties": {
        "@id": "node/296939563",
        "bus": "yes",
        "name": "Stahnsdorfer Brücke",
        "public_transport": "stop_position"
      },
      "geometry": {
        "type": "Point",
        "coordinates": [
          13.1314151,
          52.3914201
        ]
      }
    },
    {
      "type": "Feature",
      "id": "node/296942988",
      "properties": {
        "@id": "node/296942988",
        "bus": "yes",
        "name": "Pablo-Neruda-Straße",
        "public_transport": "stop_position"
      },
      "geometry": {
        "type": "Point",
        "coordinates": [
          13.5872661,
          52.4403538
        ]
      }
    },
    {
      "type": "Feature",
      "id": "node/296956856",
      "properties": {
        "@id": "node/296956856",
        "bus": "yes",
        "name": "Köllnischer Platz",
        "public_transport": "stop_position",
        "wheelchair": "yes"
      },
      "geometry": {
        "type": "Point",
        "coordinates": [
          13.5682691,
          52.4447166
        ]
      }
    },
    {
      "type": "Feature",
      "id": "node/297194207",
      "properties": {
        "@id": "node/297194207",
        "name": "Glienicker Weg/Nipkowstraße",
        "public_transport": "stop_position"
      },
      "geometry": {
        "type": "Point",
        "coordinates": [
          13.5550294,
          52.4328775
        ]
      }
    },